{
  "devices": {
    "of:0000000000000001": { "basic": { "name": "Banda Aceh", "latitude": 5.5528455, "longitude": 95.3192908 }},
    "of:0000000000000002": { "basic": { "name": "Medan", "latitude": 3.5896654, "longitude": 98.6738261 }},
    "of:0000000000000003": { "basic": { "name": "Pekanbaru", "latitude": 0.5262455, "longitude": 101.4515727 }},
    "of:0000000000000004": { "basic": { "name": "Padang", "latitude": -0.9247587, "longitude": 100.3632561 }},
    "of:0000000000000005": { "basic": { "name": "Jambi", "latitude": -1.611572, "longitude": 102.779699 }},
    "of:0000000000000006": { "basic": { "name": "Bengkulu", "latitude": -3.5186763, "longitude": 102.5359834 }},
    "of:0000000000000007": { "basic": { "name": "Palembang", "latitude": 	-2.9888297, "longitude": 104.756857 }},
    "of:0000000000000008": { "basic": { "name": "Bandar Lampung", "latitude": -5.4460713, "longitude": 105.2643742 }}
  },

  "hosts": {
    "00:00:00:00:00:01/-1": { "basic": { "locations": ["of:0000000000000001/1"], "name": "Unsyiah", "ips": ["10.1.0.1"], "latitude": 5.569271, "longitude": 95.3712423139439 }},
    "00:00:00:00:00:02/-1": { "basic": { "locations": ["of:0000000000000002/2"], "name": "Unimal", "ips": ["10.2.0.2"], "latitude": 5.23234885, "longitude": 96.9845532398596 }},
    "00:00:00:00:00:03/-1": { "basic": { "locations": ["of:0000000000000002/1"], "name": "Unimed", "ips": ["10.2.0.3"], "latitude": 3.60811545, "longitude": 98.7170918571102 }},
    "00:00:00:00:00:04/-1": { "basic": { "locations": ["of:0000000000000003/2"], "name": "UNRI", "ips": ["10.3.0.4"], "latitude": 0.5112583, "longitude": 101.455517346147 }},
    "00:00:00:00:00:05/-1": { "basic": { "locations": ["of:0000000000000004/1"], "name": "UNP", "ips": ["10.4.0.5"], "latitude": 	-0.8971032, "longitude": 100.34986 }},
    "00:00:00:00:00:06/-1": { "basic": { "locations": ["of:0000000000000004/2"], "name": "Politani", "ips": ["10.4.0.6"], "latitude": -0.1695741779035344, "longitude": 100.66421840908095 }},
    "00:00:00:00:00:07/-1": { "basic": { "locations": ["of:0000000000000004/1"], "name": "STSI", "ips": ["10.4.0.7"], "latitude": -0.45894193011200446, "longitude": 100.40368378023227 }},
    "00:00:00:00:00:08/-1": { "basic": { "locations": ["of:0000000000000005/2"], "name": "UNJA", "ips": ["10.5.0.8"], "latitude": -1.61201485, "longitude": 103.518906369136 }},
    "00:00:00:00:00:09/-1": { "basic": { "locations": ["of:0000000000000006/1"], "name": "UNIB", "ips": ["10.6.0.9"], "latitude": -3.7585959, "longitude": 102.273122274915 }},
    "00:00:00:00:00:0A/-1": { "basic": { "locations": ["of:0000000000000007/2"], "name": "Polsri", "ips": ["10.7.0.10"], "latitude": -2.98265885, "longitude": 104.732898214858 }},
    "00:00:00:00:00:0B/-1": { "basic": { "locations": ["of:0000000000000007/1"], "name": "UBB", "ips": ["10.7.0.11"], "latitude": -2.0710675, "longitude": 106.076023160093 }},
    "00:00:00:00:00:0C/-1": { "basic": { "locations": ["of:0000000000000008/2"], "name": "ITERA", "ips": ["10.8.0.12"], "latitude": -5.358254281782553, "longitude": 105.31485419189114 }},
    "00:00:00:00:00:0D/-1": { "basic": { "locations": ["of:0000000000000008/1"], "name": "Unila", "ips": ["10.8.0.13"], "latitude": -5.364165173333822, "longitude": 105.24289998024065 }}
  }
}
